$GPGGA,070450.345,4728.344,N,01903.787,E,1,12,1.0,0.0,M,0.0,M,,*63
$GPGSA,A,3,01,02,03,04,05,06,07,08,09,10,11,12,1.0,1.0,1.0*30
$GPRMC,070450.345,A,4728.344,N,01903.787,E,009.7,082.8,031120,000.0,W*7A
$GPGGA,070451.345,4728.345,N,01903.791,E,1,12,1.0,0.0,M,0.0,M,,*64
$GPGSA,A,3,01,02,03,04,05,06,07,08,09,10,11,12,1.0,1.0,1.0*30
$GPRMC,070451.345,A,4728.345,N,01903.791,E,009.7,082.8,031120,000.0,W*7D
$GPGGA,070452.345,4728.345,N,01903.795,E,1,12,1.0,0.0,M,0.0,M,,*63
$GPGSA,A,3,01,02,03,04,05,06,07,08,09,10,11,12,1.0,1.0,1.0*30
$GPRMC,070452.345,A,4728.345,N,01903.795,E,009.7,163.8,031120,000.0,W*74
$GPGGA,070453.345,4728.343,N,01903.796,E,1,12,1.0,0.0,M,0.0,M,,*67
$GPGSA,A,3,01,02,03,04,05,06,07,08,09,10,11,12,1.0,1.0,1.0*30
$GPRMC,070453.345,A,4728.343,N,01903.796,E,009.7,163.8,031120,000.0,W*70
$GPGGA,070454.345,4728.340,N,01903.797,E,1,12,1.0,0.0,M,0.0,M,,*62
$GPGSA,A,3,01,02,03,04,05,06,07,08,09,10,11,12,1.0,1.0,1.0*30
$GPRMC,070454.345,A,4728.340,N,01903.797,E,009.7,163.8,031120,000.0,W*75
$GPGGA,070455.345,4728.337,N,01903.797,E,1,12,1.0,0.0,M,0.0,M,,*63
$GPGSA,A,3,01,02,03,04,05,06,07,08,09,10,11,12,1.0,1.0,1.0*30
$GPRMC,070455.345,A,4728.337,N,01903.797,E,009.7,163.8,031120,000.0,W*74
$GPGGA,070456.345,4728.335,N,01903.798,E,1,12,1.0,0.0,M,0.0,M,,*6D
$GPGSA,A,3,01,02,03,04,05,06,07,08,09,10,11,12,1.0,1.0,1.0*30
$GPRMC,070456.345,A,4728.335,N,01903.798,E,009.7,163.8,031120,000.0,W*7A
$GPGGA,070457.345,4728.332,N,01903.799,E,1,12,1.0,0.0,M,0.0,M,,*6A
$GPGSA,A,3,01,02,03,04,05,06,07,08,09,10,11,12,1.0,1.0,1.0*30
$GPRMC,070457.345,A,4728.332,N,01903.799,E,009.7,163.8,031120,000.0,W*7D
$GPGGA,070458.345,4728.329,N,01903.800,E,1,12,1.0,0.0,M,0.0,M,,*60
$GPGSA,A,3,01,02,03,04,05,06,07,08,09,10,11,12,1.0,1.0,1.0*30
$GPRMC,070458.345,A,4728.329,N,01903.800,E,009.7,163.8,031120,000.0,W*77
$GPGGA,070459.345,4728.327,N,01903.800,E,1,12,1.0,0.0,M,0.0,M,,*6F
$GPGSA,A,3,01,02,03,04,05,06,07,08,09,10,11,12,1.0,1.0,1.0*30
$GPRMC,070459.345,A,4728.327,N,01903.800,E,009.7,163.8,031120,000.0,W*78
$GPGGA,070500.345,4728.324,N,01903.801,E,1,12,1.0,0.0,M,0.0,M,,*60
$GPGSA,A,3,01,02,03,04,05,06,07,08,09,10,11,12,1.0,1.0,1.0*30
$GPRMC,070500.345,A,4728.324,N,01903.801,E,009.7,163.8,031120,000.0,W*77
$GPGGA,070501.345,4728.321,N,01903.802,E,1,12,1.0,0.0,M,0.0,M,,*67
$GPGSA,A,3,01,02,03,04,05,06,07,08,09,10,11,12,1.0,1.0,1.0*30
$GPRMC,070501.345,A,4728.321,N,01903.802,E,009.7,163.8,031120,000.0,W*70
$GPGGA,070502.345,4728.319,N,01903.803,E,1,12,1.0,0.0,M,0.0,M,,*6E
$GPGSA,A,3,01,02,03,04,05,06,07,08,09,10,11,12,1.0,1.0,1.0*30
$GPRMC,070502.345,A,4728.319,N,01903.803,E,009.7,163.8,031120,000.0,W*79
$GPGGA,070503.345,4728.316,N,01903.803,E,1,12,1.0,0.0,M,0.0,M,,*60
$GPGSA,A,3,01,02,03,04,05,06,07,08,09,10,11,12,1.0,1.0,1.0*30
$GPRMC,070503.345,A,4728.316,N,01903.803,E,009.7,163.8,031120,000.0,W*77
$GPGGA,070504.345,4728.313,N,01903.804,E,1,12,1.0,0.0,M,0.0,M,,*65
$GPGSA,A,3,01,02,03,04,05,06,07,08,09,10,11,12,1.0,1.0,1.0*30
$GPRMC,070504.345,A,4728.313,N,01903.804,E,009.7,163.8,031120,000.0,W*72
$GPGGA,070505.345,4728.311,N,01903.805,E,1,12,1.0,0.0,M,0.0,M,,*67
$GPGSA,A,3,01,02,03,04,05,06,07,08,09,10,11,12,1.0,1.0,1.0*30
$GPRMC,070505.345,A,4728.311,N,01903.805,E,009.7,163.8,031120,000.0,W*70
$GPGGA,070506.345,4728.308,N,01903.806,E,1,12,1.0,0.0,M,0.0,M,,*6F
$GPGSA,A,3,01,02,03,04,05,06,07,08,09,10,11,12,1.0,1.0,1.0*30
$GPRMC,070506.345,A,4728.308,N,01903.806,E,009.7,163.8,031120,000.0,W*78
$GPGGA,070507.345,4728.305,N,01903.807,E,1,12,1.0,0.0,M,0.0,M,,*62
$GPGSA,A,3,01,02,03,04,05,06,07,08,09,10,11,12,1.0,1.0,1.0*30
$GPRMC,070507.345,A,4728.305,N,01903.807,E,009.7,163.8,031120,000.0,W*75
$GPGGA,070508.345,4728.303,N,01903.807,E,1,12,1.0,0.0,M,0.0,M,,*6B
$GPGSA,A,3,01,02,03,04,05,06,07,08,09,10,11,12,1.0,1.0,1.0*30
$GPRMC,070508.345,A,4728.303,N,01903.807,E,009.7,250.1,031120,000.0,W*76
$GPGGA,070509.345,4728.302,N,01903.804,E,1,12,1.0,0.0,M,0.0,M,,*68
$GPGSA,A,3,01,02,03,04,05,06,07,08,09,10,11,12,1.0,1.0,1.0*30
$GPRMC,070509.345,A,4728.302,N,01903.804,E,009.7,250.1,031120,000.0,W*75
$GPGGA,070510.345,4728.300,N,01903.800,E,1,12,1.0,0.0,M,0.0,M,,*66
$GPGSA,A,3,01,02,03,04,05,06,07,08,09,10,11,12,1.0,1.0,1.0*30
$GPRMC,070510.345,A,4728.300,N,01903.800,E,009.7,324.0,031120,000.0,W*78
$GPGGA,070511.345,4728.303,N,01903.799,E,1,12,1.0,0.0,M,0.0,M,,*6B
$GPGSA,A,3,01,02,03,04,05,06,07,08,09,10,11,12,1.0,1.0,1.0*30
$GPRMC,070511.345,A,4728.303,N,01903.799,E,009.7,324.0,031120,000.0,W*75
$GPGGA,070512.345,4728.305,N,01903.797,E,1,12,1.0,0.0,M,0.0,M,,*60
$GPGSA,A,3,01,02,03,04,05,06,07,08,09,10,11,12,1.0,1.0,1.0*30
$GPRMC,070512.345,A,4728.305,N,01903.797,E,009.7,324.0,031120,000.0,W*7E
$GPGGA,070513.345,4728.308,N,01903.795,E,1,12,1.0,0.0,M,0.0,M,,*6E
$GPGSA,A,3,01,02,03,04,05,06,07,08,09,10,11,12,1.0,1.0,1.0*30
$GPRMC,070513.345,A,4728.308,N,01903.795,E,009.7,264.0,031120,000.0,W*75
$GPGGA,070514.345,4728.307,N,01903.791,E,1,12,1.0,0.0,M,0.0,M,,*62
$GPGSA,A,3,01,02,03,04,05,06,07,08,09,10,11,12,1.0,1.0,1.0*30
$GPRMC,070514.345,A,4728.307,N,01903.791,E,009.7,264.0,031120,000.0,W*79
$GPGGA,070515.345,4728.307,N,01903.787,E,1,12,1.0,0.0,M,0.0,M,,*64
$GPGSA,A,3,01,02,03,04,05,06,07,08,09,10,11,12,1.0,1.0,1.0*30
$GPRMC,070515.345,A,4728.307,N,01903.787,E,009.7,264.0,031120,000.0,W*7F
$GPGGA,070516.345,4728.306,N,01903.783,E,1,12,1.0,0.0,M,0.0,M,,*62
$GPGSA,A,3,01,02,03,04,05,06,07,08,09,10,11,12,1.0,1.0,1.0*30
$GPRMC,070516.345,A,4728.306,N,01903.783,E,009.7,264.0,031120,000.0,W*79
$GPGGA,070517.345,4728.306,N,01903.779,E,1,12,1.0,0.0,M,0.0,M,,*66
$GPGSA,A,3,01,02,03,04,05,06,07,08,09,10,11,12,1.0,1.0,1.0*30
$GPRMC,070517.345,A,4728.306,N,01903.779,E,009.7,264.0,031120,000.0,W*7D
$GPGGA,070518.345,4728.306,N,01903.775,E,1,12,1.0,0.0,M,0.0,M,,*65
$GPGSA,A,3,01,02,03,04,05,06,07,08,09,10,11,12,1.0,1.0,1.0*30
$GPRMC,070518.345,A,4728.306,N,01903.775,E,009.7,264.0,031120,000.0,W*7E
$GPGGA,070519.345,4728.305,N,01903.771,E,1,12,1.0,0.0,M,0.0,M,,*63
$GPGSA,A,3,01,02,03,04,05,06,07,08,09,10,11,12,1.0,1.0,1.0*30
$GPRMC,070519.345,A,4728.305,N,01903.771,E,009.7,264.0,031120,000.0,W*78
$GPGGA,070520.345,4728.305,N,01903.767,E,1,12,1.0,0.0,M,0.0,M,,*6E
$GPGSA,A,3,01,02,03,04,05,06,07,08,09,10,11,12,1.0,1.0,1.0*30
$GPRMC,070520.345,A,4728.305,N,01903.767,E,009.7,264.0,031120,000.0,W*75
$GPGGA,070521.345,4728.304,N,01903.763,E,1,12,1.0,0.0,M,0.0,M,,*6A
$GPGSA,A,3,01,02,03,04,05,06,07,08,09,10,11,12,1.0,1.0,1.0*30
$GPRMC,070521.345,A,4728.304,N,01903.763,E,009.7,264.0,031120,000.0,W*71
$GPGGA,070522.345,4728.304,N,01903.760,E,1,12,1.0,0.0,M,0.0,M,,*6A
$GPGSA,A,3,01,02,03,04,05,06,07,08,09,10,11,12,1.0,1.0,1.0*30
$GPRMC,070522.345,A,4728.304,N,01903.760,E,009.7,264.0,031120,000.0,W*71
$GPGGA,070523.345,4728.303,N,01903.756,E,1,12,1.0,0.0,M,0.0,M,,*69
$GPGSA,A,3,01,02,03,04,05,06,07,08,09,10,11,12,1.0,1.0,1.0*30
$GPRMC,070523.345,A,4728.303,N,01903.756,E,009.7,264.0,031120,000.0,W*72
$GPGGA,070524.345,4728.303,N,01903.752,E,1,12,1.0,0.0,M,0.0,M,,*6A
$GPGSA,A,3,01,02,03,04,05,06,07,08,09,10,11,12,1.0,1.0,1.0*30
$GPRMC,070524.345,A,4728.303,N,01903.752,E,009.7,264.0,031120,000.0,W*71
$GPGGA,070525.345,4728.303,N,01903.748,E,1,12,1.0,0.0,M,0.0,M,,*60
$GPGSA,A,3,01,02,03,04,05,06,07,08,09,10,11,12,1.0,1.0,1.0*30
$GPRMC,070525.345,A,4728.303,N,01903.748,E,009.7,264.0,031120,000.0,W*7B
$GPGGA,070526.345,4728.302,N,01903.744,E,1,12,1.0,0.0,M,0.0,M,,*6E
$GPGSA,A,3,01,02,03,04,05,06,07,08,09,10,11,12,1.0,1.0,1.0*30
$GPRMC,070526.345,A,4728.302,N,01903.744,E,009.7,264.0,031120,000.0,W*75
$GPGGA,070527.345,4728.302,N,01903.740,E,1,12,1.0,0.0,M,0.0,M,,*6B
$GPGSA,A,3,01,02,03,04,05,06,07,08,09,10,11,12,1.0,1.0,1.0*30
$GPRMC,070527.345,A,4728.302,N,01903.740,E,009.7,264.0,031120,000.0,W*70
$GPGGA,070528.345,4728.301,N,01903.736,E,1,12,1.0,0.0,M,0.0,M,,*66
$GPGSA,A,3,01,02,03,04,05,06,07,08,09,10,11,12,1.0,1.0,1.0*30
$GPRMC,070528.345,A,4728.301,N,01903.736,E,009.7,264.0,031120,000.0,W*7D
$GPGGA,070529.345,4728.301,N,01903.732,E,1,12,1.0,0.0,M,0.0,M,,*63
$GPGSA,A,3,01,02,03,04,05,06,07,08,09,10,11,12,1.0,1.0,1.0*30
$GPRMC,070529.345,A,4728.301,N,01903.732,E,009.7,264.0,031120,000.0,W*78
$GPGGA,070530.345,4728.301,N,01903.728,E,1,12,1.0,0.0,M,0.0,M,,*60
$GPGSA,A,3,01,02,03,04,05,06,07,08,09,10,11,12,1.0,1.0,1.0*30
$GPRMC,070530.345,A,4728.301,N,01903.728,E,009.7,264.0,031120,000.0,W*7B
$GPGGA,070531.345,4728.300,N,01903.724,E,1,12,1.0,0.0,M,0.0,M,,*6C
$GPGSA,A,3,01,02,03,04,05,06,07,08,09,10,11,12,1.0,1.0,1.0*30
$GPRMC,070531.345,A,4728.300,N,01903.724,E,009.7,264.0,031120,000.0,W*77
$GPGGA,070532.345,4728.300,N,01903.720,E,1,12,1.0,0.0,M,0.0,M,,*6B
$GPGSA,A,3,01,02,03,04,05,06,07,08,09,10,11,12,1.0,1.0,1.0*30
$GPRMC,070532.345,A,4728.300,N,01903.720,E,009.7,273.7,031120,000.0,W*71
$GPGGA,070533.345,4728.300,N,01903.716,E,1,12,1.0,0.0,M,0.0,M,,*6F
$GPGSA,A,3,01,02,03,04,05,06,07,08,09,10,11,12,1.0,1.0,1.0*30
$GPRMC,070533.345,A,4728.300,N,01903.716,E,009.7,273.7,031120,000.0,W*75
$GPGGA,070534.345,4728.300,N,01903.712,E,1,12,1.0,0.0,M,0.0,M,,*6C
$GPGSA,A,3,01,02,03,04,05,06,07,08,09,10,11,12,1.0,1.0,1.0*30
$GPRMC,070534.345,A,4728.300,N,01903.712,E,009.7,273.7,031120,000.0,W*76
$GPGGA,070535.345,4728.301,N,01903.708,E,1,12,1.0,0.0,M,0.0,M,,*67
$GPGSA,A,3,01,02,03,04,05,06,07,08,09,10,11,12,1.0,1.0,1.0*30
$GPRMC,070535.345,A,4728.301,N,01903.708,E,009.7,273.7,031120,000.0,W*7D
$GPGGA,070536.345,4728.301,N,01903.704,E,1,12,1.0,0.0,M,0.0,M,,*68
$GPGSA,A,3,01,02,03,04,05,06,07,08,09,10,11,12,1.0,1.0,1.0*30
$GPRMC,070536.345,A,4728.301,N,01903.704,E,009.7,273.7,031120,000.0,W*72
$GPGGA,070537.345,4728.301,N,01903.700,E,1,12,1.0,0.0,M,0.0,M,,*6D
$GPGSA,A,3,01,02,03,04,05,06,07,08,09,10,11,12,1.0,1.0,1.0*30
$GPRMC,070537.345,A,4728.301,N,01903.700,E,009.7,273.7,031120,000.0,W*77
$GPGGA,070538.345,4728.301,N,01903.696,E,1,12,1.0,0.0,M,0.0,M,,*6C
$GPGSA,A,3,01,02,03,04,05,06,07,08,09,10,11,12,1.0,1.0,1.0*30
$GPRMC,070538.345,A,4728.301,N,01903.696,E,009.7,273.7,031120,000.0,W*76
$GPGGA,070539.345,4728.302,N,01903.692,E,1,12,1.0,0.0,M,0.0,M,,*6A
$GPGSA,A,3,01,02,03,04,05,06,07,08,09,10,11,12,1.0,1.0,1.0*30
$GPRMC,070539.345,A,4728.302,N,01903.692,E,009.7,273.7,031120,000.0,W*70
$GPGGA,070540.345,4728.302,N,01903.688,E,1,12,1.0,0.0,M,0.0,M,,*6F
$GPGSA,A,3,01,02,03,04,05,06,07,08,09,10,11,12,1.0,1.0,1.0*30
$GPRMC,070540.345,A,4728.302,N,01903.688,E,009.7,273.7,031120,000.0,W*75
$GPGGA,070541.345,4728.302,N,01903.684,E,1,12,1.0,0.0,M,0.0,M,,*62
$GPGSA,A,3,01,02,03,04,05,06,07,08,09,10,11,12,1.0,1.0,1.0*30
$GPRMC,070541.345,A,4728.302,N,01903.684,E,009.7,016.3,031120,000.0,W*7D
$GPGGA,070542.345,4728.305,N,01903.685,E,1,12,1.0,0.0,M,0.0,M,,*67
$GPGSA,A,3,01,02,03,04,05,06,07,08,09,10,11,12,1.0,1.0,1.0*30
$GPRMC,070542.345,A,4728.305,N,01903.685,E,009.7,016.3,031120,000.0,W*78
$GPGGA,070543.345,4728.307,N,01903.686,E,1,12,1.0,0.0,M,0.0,M,,*67
$GPGSA,A,3,01,02,03,04,05,06,07,08,09,10,11,12,1.0,1.0,1.0*30
$GPRMC,070543.345,A,4728.307,N,01903.686,E,009.7,016.3,031120,000.0,W*78
$GPGGA,070544.345,4728.310,N,01903.687,E,1,12,1.0,0.0,M,0.0,M,,*67
$GPGSA,A,3,01,02,03,04,05,06,07,08,09,10,11,12,1.0,1.0,1.0*30
$GPRMC,070544.345,A,4728.310,N,01903.687,E,009.7,016.3,031120,000.0,W*78
$GPGGA,070545.345,4728.313,N,01903.687,E,1,12,1.0,0.0,M,0.0,M,,*65
$GPGSA,A,3,01,02,03,04,05,06,07,08,09,10,11,12,1.0,1.0,1.0*30
$GPRMC,070545.345,A,4728.313,N,01903.687,E,009.7,016.3,031120,000.0,W*7A
$GPGGA,070546.345,4728.315,N,01903.688,E,1,12,1.0,0.0,M,0.0,M,,*6F
$GPGSA,A,3,01,02,03,04,05,06,07,08,09,10,11,12,1.0,1.0,1.0*30
$GPRMC,070546.345,A,4728.315,N,01903.688,E,009.7,016.3,031120,000.0,W*70
$GPGGA,070547.345,4728.318,N,01903.689,E,1,12,1.0,0.0,M,0.0,M,,*62
$GPGSA,A,3,01,02,03,04,05,06,07,08,09,10,11,12,1.0,1.0,1.0*30
$GPRMC,070547.345,A,4728.318,N,01903.689,E,009.7,016.3,031120,000.0,W*7D
$GPGGA,070548.345,4728.321,N,01903.690,E,1,12,1.0,0.0,M,0.0,M,,*6F
$GPGSA,A,3,01,02,03,04,05,06,07,08,09,10,11,12,1.0,1.0,1.0*30
$GPRMC,070548.345,A,4728.321,N,01903.690,E,009.7,016.3,031120,000.0,W*70
$GPGGA,070549.345,4728.323,N,01903.691,E,1,12,1.0,0.0,M,0.0,M,,*6D
$GPGSA,A,3,01,02,03,04,05,06,07,08,09,10,11,12,1.0,1.0,1.0*30
$GPRMC,070549.345,A,4728.323,N,01903.691,E,009.7,016.3,031120,000.0,W*72
$GPGGA,070550.345,4728.326,N,01903.691,E,1,12,1.0,0.0,M,0.0,M,,*60
$GPGSA,A,3,01,02,03,04,05,06,07,08,09,10,11,12,1.0,1.0,1.0*30
$GPRMC,070550.345,A,4728.326,N,01903.691,E,009.7,016.3,031120,000.0,W*7F
$GPGGA,070551.345,4728.329,N,01903.692,E,1,12,1.0,0.0,M,0.0,M,,*6D
$GPGSA,A,3,01,02,03,04,05,06,07,08,09,10,11,12,1.0,1.0,1.0*30
$GPRMC,070551.345,A,4728.329,N,01903.692,E,009.7,016.3,031120,000.0,W*72
$GPGGA,070552.345,4728.331,N,01903.693,E,1,12,1.0,0.0,M,0.0,M,,*66
$GPGSA,A,3,01,02,03,04,05,06,07,08,09,10,11,12,1.0,1.0,1.0*30
$GPRMC,070552.345,A,4728.331,N,01903.693,E,009.7,016.3,031120,000.0,W*79
$GPGGA,070553.345,4728.334,N,01903.694,E,1,12,1.0,0.0,M,0.0,M,,*65
$GPGSA,A,3,01,02,03,04,05,06,07,08,09,10,11,12,1.0,1.0,1.0*30
$GPRMC,070553.345,A,4728.334,N,01903.694,E,009.7,016.3,031120,000.0,W*7A
$GPGGA,070554.345,4728.336,N,01903.694,E,1,12,1.0,0.0,M,0.0,M,,*60
$GPGSA,A,3,01,02,03,04,05,06,07,08,09,10,11,12,1.0,1.0,1.0*30
$GPRMC,070554.345,A,4728.336,N,01903.694,E,009.7,016.3,031120,000.0,W*7F
$GPGGA,070555.345,4728.339,N,01903.695,E,1,12,1.0,0.0,M,0.0,M,,*6F
$GPGSA,A,3,01,02,03,04,05,06,07,08,09,10,11,12,1.0,1.0,1.0*30
$GPRMC,070555.345,A,4728.339,N,01903.695,E,009.7,016.3,031120,000.0,W*70
$GPGGA,070556.345,4728.342,N,01903.696,E,1,12,1.0,0.0,M,0.0,M,,*63
$GPGSA,A,3,01,02,03,04,05,06,07,08,09,10,11,12,1.0,1.0,1.0*30
$GPRMC,070556.345,A,4728.342,N,01903.696,E,009.7,016.3,031120,000.0,W*7C
$GPGGA,070557.345,4728.344,N,01903.697,E,1,12,1.0,0.0,M,0.0,M,,*65
$GPGSA,A,3,01,02,03,04,05,06,07,08,09,10,11,12,1.0,1.0,1.0*30
$GPRMC,070557.345,A,4728.344,N,01903.697,E,009.7,016.3,031120,000.0,W*7A
$GPGGA,070558.345,4728.347,N,01903.698,E,1,12,1.0,0.0,M,0.0,M,,*66
$GPGSA,A,3,01,02,03,04,05,06,07,08,09,10,11,12,1.0,1.0,1.0*30
$GPRMC,070558.345,A,4728.347,N,01903.698,E,009.7,016.3,031120,000.0,W*79
$GPGGA,070559.345,4728.350,N,01903.698,E,1,12,1.0,0.0,M,0.0,M,,*61
$GPGSA,A,3,01,02,03,04,05,06,07,08,09,10,11,12,1.0,1.0,1.0*30
$GPRMC,070559.345,A,4728.350,N,01903.698,E,009.7,016.3,031120,000.0,W*7E
$GPGGA,070600.345,4728.352,N,01903.699,E,1,12,1.0,0.0,M,0.0,M,,*6D
$GPGSA,A,3,01,02,03,04,05,06,07,08,09,10,11,12,1.0,1.0,1.0*30
$GPRMC,070600.345,A,4728.352,N,01903.699,E,009.7,016.3,031120,000.0,W*72
$GPGGA,070601.345,4728.355,N,01903.700,E,1,12,1.0,0.0,M,0.0,M,,*6A
$GPGSA,A,3,01,02,03,04,05,06,07,08,09,10,11,12,1.0,1.0,1.0*30
$GPRMC,070601.345,A,4728.355,N,01903.700,E,009.7,016.3,031120,000.0,W*75
$GPGGA,070602.345,4728.358,N,01903.701,E,1,12,1.0,0.0,M,0.0,M,,*65
$GPGSA,A,3,01,02,03,04,05,06,07,08,09,10,11,12,1.0,1.0,1.0*30
$GPRMC,070602.345,A,4728.358,N,01903.701,E,009.7,016.3,031120,000.0,W*7A
$GPGGA,070603.345,4728.360,N,01903.701,E,1,12,1.0,0.0,M,0.0,M,,*6F
$GPGSA,A,3,01,02,03,04,05,06,07,08,09,10,11,12,1.0,1.0,1.0*30
$GPRMC,070603.345,A,4728.360,N,01903.701,E,009.7,016.3,031120,000.0,W*70
$GPGGA,070604.345,4728.363,N,01903.702,E,1,12,1.0,0.0,M,0.0,M,,*68
$GPGSA,A,3,01,02,03,04,05,06,07,08,09,10,11,12,1.0,1.0,1.0*30
$GPRMC,070604.345,A,4728.363,N,01903.702,E,009.7,016.3,031120,000.0,W*77
$GPGGA,070605.345,4728.366,N,01903.703,E,1,12,1.0,0.0,M,0.0,M,,*6D
$GPGSA,A,3,01,02,03,04,05,06,07,08,09,10,11,12,1.0,1.0,1.0*30
$GPRMC,070605.345,A,4728.366,N,01903.703,E,009.7,082.3,031120,000.0,W*7F
$GPGGA,070606.345,4728.366,N,01903.707,E,1,12,1.0,0.0,M,0.0,M,,*6A
$GPGSA,A,3,01,02,03,04,05,06,07,08,09,10,11,12,1.0,1.0,1.0*30
$GPRMC,070606.345,A,4728.366,N,01903.707,E,009.7,082.3,031120,000.0,W*78
$GPGGA,070607.345,4728.367,N,01903.711,E,1,12,1.0,0.0,M,0.0,M,,*6D
$GPGSA,A,3,01,02,03,04,05,06,07,08,09,10,11,12,1.0,1.0,1.0*30
$GPRMC,070607.345,A,4728.367,N,01903.711,E,009.7,082.3,031120,000.0,W*7F
$GPGGA,070608.345,4728.367,N,01903.715,E,1,12,1.0,0.0,M,0.0,M,,*66
$GPGSA,A,3,01,02,03,04,05,06,07,08,09,10,11,12,1.0,1.0,1.0*30
$GPRMC,070608.345,A,4728.367,N,01903.715,E,009.7,082.3,031120,000.0,W*74
$GPGGA,070609.345,4728.368,N,01903.719,E,1,12,1.0,0.0,M,0.0,M,,*64
$GPGSA,A,3,01,02,03,04,05,06,07,08,09,10,11,12,1.0,1.0,1.0*30
$GPRMC,070609.345,A,4728.368,N,01903.719,E,009.7,082.3,031120,000.0,W*76
$GPGGA,070610.345,4728.368,N,01903.723,E,1,12,1.0,0.0,M,0.0,M,,*65
$GPGSA,A,3,01,02,03,04,05,06,07,08,09,10,11,12,1.0,1.0,1.0*30
$GPRMC,070610.345,A,4728.368,N,01903.723,E,009.7,082.3,031120,000.0,W*77
$GPGGA,070611.345,4728.369,N,01903.726,E,1,12,1.0,0.0,M,0.0,M,,*60
$GPGSA,A,3,01,02,03,04,05,06,07,08,09,10,11,12,1.0,1.0,1.0*30
$GPRMC,070611.345,A,4728.369,N,01903.726,E,009.7,082.3,031120,000.0,W*72
$GPGGA,070612.345,4728.369,N,01903.730,E,1,12,1.0,0.0,M,0.0,M,,*64
$GPGSA,A,3,01,02,03,04,05,06,07,08,09,10,11,12,1.0,1.0,1.0*30
$GPRMC,070612.345,A,4728.369,N,01903.730,E,009.7,082.3,031120,000.0,W*76
$GPGGA,070613.345,4728.370,N,01903.734,E,1,12,1.0,0.0,M,0.0,M,,*69
$GPGSA,A,3,01,02,03,04,05,06,07,08,09,10,11,12,1.0,1.0,1.0*30
$GPRMC,070613.345,A,4728.370,N,01903.734,E,009.7,082.3,031120,000.0,W*7B
$GPGGA,070614.345,4728.370,N,01903.738,E,1,12,1.0,0.0,M,0.0,M,,*62
$GPGSA,A,3,01,02,03,04,05,06,07,08,09,10,11,12,1.0,1.0,1.0*30
$GPRMC,070614.345,A,4728.370,N,01903.738,E,009.7,082.3,031120,000.0,W*70
$GPGGA,070615.345,4728.371,N,01903.742,E,1,12,1.0,0.0,M,0.0,M,,*6F
$GPGSA,A,3,01,02,03,04,05,06,07,08,09,10,11,12,1.0,1.0,1.0*30
$GPRMC,070615.345,A,4728.371,N,01903.742,E,009.7,082.3,031120,000.0,W*7D
$GPGGA,070616.345,4728.371,N,01903.746,E,1,12,1.0,0.0,M,0.0,M,,*68
$GPGSA,A,3,01,02,03,04,05,06,07,08,09,10,11,12,1.0,1.0,1.0*30
$GPRMC,070616.345,A,4728.371,N,01903.746,E,009.7,082.3,031120,000.0,W*7A
$GPGGA,070617.345,4728.372,N,01903.750,E,1,12,1.0,0.0,M,0.0,M,,*6D
$GPGSA,A,3,01,02,03,04,05,06,07,08,09,10,11,12,1.0,1.0,1.0*30
$GPRMC,070617.345,A,4728.372,N,01903.750,E,009.7,082.3,031120,000.0,W*7F
$GPGGA,070618.345,4728.372,N,01903.754,E,1,12,1.0,0.0,M,0.0,M,,*66
$GPGSA,A,3,01,02,03,04,05,06,07,08,09,10,11,12,1.0,1.0,1.0*30
$GPRMC,070618.345,A,4728.372,N,01903.754,E,009.7,082.3,031120,000.0,W*74
$GPGGA,070619.345,4728.373,N,01903.758,E,1,12,1.0,0.0,M,0.0,M,,*6A
$GPGSA,A,3,01,02,03,04,05,06,07,08,09,10,11,12,1.0,1.0,1.0*30
$GPRMC,070619.345,A,4728.373,N,01903.758,E,009.7,082.3,031120,000.0,W*78
$GPGGA,070620.345,4728.374,N,01903.762,E,1,12,1.0,0.0,M,0.0,M,,*6E
$GPGSA,A,3,01,02,03,04,05,06,07,08,09,10,11,12,1.0,1.0,1.0*30
$GPRMC,070620.345,A,4728.374,N,01903.762,E,009.7,082.3,031120,000.0,W*7C
$GPGGA,070621.345,4728.374,N,01903.766,E,1,12,1.0,0.0,M,0.0,M,,*6B
$GPGSA,A,3,01,02,03,04,05,06,07,08,09,10,11,12,1.0,1.0,1.0*30
$GPRMC,070621.345,A,4728.374,N,01903.766,E,009.7,082.3,031120,000.0,W*79
$GPGGA,070622.345,4728.375,N,01903.769,E,1,12,1.0,0.0,M,0.0,M,,*66
$GPGSA,A,3,01,02,03,04,05,06,07,08,09,10,11,12,1.0,1.0,1.0*30
$GPRMC,070622.345,A,4728.375,N,01903.769,E,009.7,082.3,031120,000.0,W*74
$GPGGA,070623.345,4728.375,N,01903.773,E,1,12,1.0,0.0,M,0.0,M,,*6C
$GPGSA,A,3,01,02,03,04,05,06,07,08,09,10,11,12,1.0,1.0,1.0*30
$GPRMC,070623.345,A,4728.375,N,01903.773,E,009.7,082.3,031120,000.0,W*7E
$GPGGA,070624.345,4728.376,N,01903.777,E,1,12,1.0,0.0,M,0.0,M,,*6C
$GPGSA,A,3,01,02,03,04,05,06,07,08,09,10,11,12,1.0,1.0,1.0*30
$GPRMC,070624.345,A,4728.376,N,01903.777,E,009.7,082.3,031120,000.0,W*7E
$GPGGA,070625.345,4728.376,N,01903.781,E,1,12,1.0,0.0,M,0.0,M,,*64
$GPGSA,A,3,01,02,03,04,05,06,07,08,09,10,11,12,1.0,1.0,1.0*30
$GPRMC,070625.345,A,4728.376,N,01903.781,E,009.7,082.3,031120,000.0,W*76
$GPGGA,070626.345,4728.377,N,01903.785,E,1,12,1.0,0.0,M,0.0,M,,*62
$GPGSA,A,3,01,02,03,04,05,06,07,08,09,10,11,12,1.0,1.0,1.0*30
$GPRMC,070626.345,A,4728.377,N,01903.785,E,009.7,161.9,031120,000.0,W*76
$GPGGA,070627.345,4728.374,N,01903.786,E,1,12,1.0,0.0,M,0.0,M,,*63
$GPGSA,A,3,01,02,03,04,05,06,07,08,09,10,11,12,1.0,1.0,1.0*30
$GPRMC,070627.345,A,4728.374,N,01903.786,E,009.7,161.9,031120,000.0,W*77
$GPGGA,070628.345,4728.371,N,01903.787,E,1,12,1.0,0.0,M,0.0,M,,*68
$GPGSA,A,3,01,02,03,04,05,06,07,08,09,10,11,12,1.0,1.0,1.0*30
$GPRMC,070628.345,A,4728.371,N,01903.787,E,009.7,161.9,031120,000.0,W*7C
$GPGGA,070629.345,4728.369,N,01903.788,E,1,12,1.0,0.0,M,0.0,M,,*6F
$GPGSA,A,3,01,02,03,04,05,06,07,08,09,10,11,12,1.0,1.0,1.0*30
$GPRMC,070629.345,A,4728.369,N,01903.788,E,009.7,161.9,031120,000.0,W*7B
$GPGGA,070630.345,4728.366,N,01903.789,E,1,12,1.0,0.0,M,0.0,M,,*69
$GPGSA,A,3,01,02,03,04,05,06,07,08,09,10,11,12,1.0,1.0,1.0*30
$GPRMC,070630.345,A,4728.366,N,01903.789,E,009.7,161.9,031120,000.0,W*7D
$GPGGA,070631.345,4728.364,N,01903.789,E,1,12,1.0,0.0,M,0.0,M,,*6A
$GPGSA,A,3,01,02,03,04,05,06,07,08,09,10,11,12,1.0,1.0,1.0*30
$GPRMC,070631.345,A,4728.364,N,01903.789,E,009.7,161.9,031120,000.0,W*7E
$GPGGA,070632.345,4728.361,N,01903.790,E,1,12,1.0,0.0,M,0.0,M,,*64
$GPGSA,A,3,01,02,03,04,05,06,07,08,09,10,11,12,1.0,1.0,1.0*30
$GPRMC,070632.345,A,4728.361,N,01903.790,E,009.7,161.9,031120,000.0,W*70
$GPGGA,070633.345,4728.358,N,01903.791,E,1,12,1.0,0.0,M,0.0,M,,*6E
$GPGSA,A,3,01,02,03,04,05,06,07,08,09,10,11,12,1.0,1.0,1.0*30
$GPRMC,070633.345,A,4728.358,N,01903.791,E,009.7,161.9,031120,000.0,W*7A
$GPGGA,070634.345,4728.356,N,01903.792,E,1,12,1.0,0.0,M,0.0,M,,*64
$GPGSA,A,3,01,02,03,04,05,06,07,08,09,10,11,12,1.0,1.0,1.0*30
$GPRMC,070634.345,A,4728.356,N,01903.792,E,009.7,161.9,031120,000.0,W*70
$GPGGA,070635.345,4728.353,N,01903.793,E,1,12,1.0,0.0,M,0.0,M,,*61
$GPGSA,A,3,01,02,03,04,05,06,07,08,09,10,11,12,1.0,1.0,1.0*30
$GPRMC,070635.345,A,4728.353,N,01903.793,E,009.7,161.9,031120,000.0,W*75
$GPGGA,070636.345,4728.350,N,01903.794,E,1,12,1.0,0.0,M,0.0,M,,*66
$GPGSA,A,3,01,02,03,04,05,06,07,08,09,10,11,12,1.0,1.0,1.0*30
$GPRMC,070636.345,A,4728.350,N,01903.794,E,009.7,161.9,031120,000.0,W*72
$GPGGA,070637.345,4728.348,N,01903.795,E,1,12,1.0,0.0,M,0.0,M,,*6F
$GPGSA,A,3,01,02,03,04,05,06,07,08,09,10,11,12,1.0,1.0,1.0*30
$GPRMC,070637.345,A,4728.348,N,01903.795,E,009.7,161.9,031120,000.0,W*7B
